{
  "哺乳類（不含蝙蝠）": [
    {
      "lat": 24.9980129,
      "lng": 121.5827522,
      "name": "臺北市立動物園",
      "address": "臺北市文山區新光路2段30號",
      "phone": "02-2938-2300#716"
    },
    {
      "lat": 25.063135,
      "lng": 121.51197,
      "name": "不萊梅特殊寵物專科醫院",
      "address": "臺北市大同區民權西路227號",
      "phone": "02-2599-3907"
    },
    {
      "lat": 24.9777046,
      "lng": 121.2770276,
      "name": "桃園市野鳥學會",
      "address": "桃園市八德區高城五街22巷5弄5號",
      "phone": "03-3695685(平日10:00-18:00) 0978-103371(平日18:00-21:00、假日)"
    },
    {
      "lat": 24.8044851,
      "lng": 121.1481284,
      "name": "六福村",
      "address": "新竹縣關西鎮60號",
      "phone": "03-5475665"
    },
    {
      "lat": 24.1123663,
      "lng": 120.7311414,
      "name": "臺中市野生動物保育學會",
      "address": "台中市太平區光興路1086號",
      "phone": "04-24969309"
    },
    {
      "lat": 23.8283274,
      "lng": 120.8011757,
      "name": "生物多樣性研究所野生動物急救站",
      "address": "南投縣集集鎮民生東路1號",
      "phone": "049-2761331#700/715"
    },
    {
      "lat": 23.4742133,
      "lng": 120.4362444,
      "name": "國立嘉義大學獸醫學院附設醫院（只收縣市政府轉送動物）",
      "address": "嘉義市西區新民路580號",
      "phone": "05-2732988"
    },
    {
      "lat": 23.2785145,
      "lng": 120.2080535,
      "name": "頑皮世界（收市府轉送動物）",
      "address": "台南市學甲區三慶里頂洲75-25號",
      "phone": "06-7810000"
    },
    {
      "lat": 22.9772417,
      "lng": 120.1908744,
      "name": "慈愛動物醫院（金華院）",
      "address": "台南市金華路二段39巷3號",
      "phone": "06-2641220"
    },
    {
      "lat": 22.6364639,
      "lng": 120.2748072,
      "name": "高雄市壽山動物園（主管機關委託，收保育類或緊急處理）",
      "address": "高雄市鼓山區萬壽路350號",
      "phone": "07-5215187"
    },
    {
      "lat": 22.6463129,
      "lng": 120.6161399,
      "name": "屏東科技大學保育類野生動物收容中心",
      "address": "屏東縣內埔鄉學府路1號",
      "phone": "08-7740413"
    },
    {
      "lat": 23.11461,
      "lng": 121.1996708,
      "name": "野灣野生動物保育協會",
      "address": "台東縣池上鄉新興村126號",
      "phone": "089-862368、0972-799052"
    },
    {
      "lat": 24.6665997,
      "lng": 121.8309079,
      "name": "宜蘭縣動植物防疫所",
      "address": "宜蘭縣五結鄉成興村利寶路60號",
      "phone": "03-9602350"
    },
    {
      "lat": 24.44852,
      "lng": 118.42141,
      "name": "金門縣野生動物救援暨保育協會",
      "address": "金門縣金湖鎮南雄30號",
      "phone": "08-2333587"
    }
  ],
  "兩棲爬蟲類": [
    {
      "lat": 24.9980129,
      "lng": 121.5827522,
      "name": "臺北市立動物園",
      "address": "臺北市文山區新光路2段30號",
      "phone": "02-2938-2300#716"
    },
    {
      "lat": 25.063135,
      "lng": 121.51197,
      "name": "不萊梅特殊寵物專科醫院",
      "address": "臺北市大同區民權西路227號",
      "phone": "02-2599-3907"
    },
    {
      "lat": 24.9777046,
      "lng": 121.2770276,
      "name": "桃園市野鳥學會",
      "address": "桃園市八德區高城五街22巷5弄5號",
      "phone": "03-3695685(平日10:00-18:00) 0978-103371(平日18:00-21:00、假日)"
    },
    {
      "lat": 24.1123663,
      "lng": 120.7311414,
      "name": "臺中市野生動物保育學會",
      "address": "台中市太平區光興路1086號",
      "phone": "04-2496309"
    },
    {
      "lat": 23.8281679,
      "lng": 120.7965426,
      "name": "生物多樣性研究所野生動物急救站",
      "address": "南投縣集集鎮民生東路一號",
      "phone": "049-2761331#700/715"
    },
    {
      "lat": 23.2785145,
      "lng": 120.2080535,
      "name": "頑皮世界（收市府轉送動物）",
      "address": "台南市學甲區三慶里頂洲75-25號",
      "phone": "06-7810000"
    },
    {
      "lat": 22.9772417,
      "lng": 120.1908744,
      "name": "慈愛動物醫院（金華院）",
      "address": "台南市金華路二段39巷3號",
      "phone": "06-2641220"
    },
    {
      "lat": 22.6364639,
      "lng": 120.2748072,
      "name": "高雄市壽山動物園（主管機關委託，收保育類或緊急動物）",
      "address": "高雄市鼓山區萬壽路350號",
      "phone": "07-5215187"
    },
    {
      "lat": 22.6463129,
      "lng": 120.6161399,
      "name": "屏東科技大學保育類野生動物收容中心",
      "address": "屏東縣內埔鄉學府路1號",
      "phone": "08-7740413"
    },
    {
      "lat": 23.11461,
      "lng": 121.1996708,
      "name": "野灣野生動物保育協會",
      "address": "台東縣池上鄉新興村126號",
      "phone": "089-862368、0972-799052"
    },
    {
      "lat": 24.6665997,
      "lng": 121.8309079,
      "name": "宜蘭縣動植物防疫所",
      "address": "宜蘭縣五結鄉成興村利寶路60號",
      "phone": "03-9602350"
    },
    {
      "lat": 24.44852,
      "lng": 118.42141,
      "name": "金門縣野生動物救援暨保育協會",
      "address": "金門縣金湖鎮南雄30號",
      "phone": "08-2333587"
    }
  ],
  "蝙蝠": [
    {
      "lat": 24.9980129,
      "lng": 121.5827522,
      "name": "臺北市立動物園",
      "address": "臺北市文山區新光路2段30號",
      "phone": "02-2938-2300#716"
    },
    {
      "lat": 25.063135,
      "lng": 121.51197,
      "name": "不萊梅特殊寵物專科醫院",
      "address": "臺北市大同區民權西路227號",
      "phone": "02-2599-3907"
    },
    {
      "lat": 24.1123663,
      "lng": 120.7311414,
      "name": "臺中市野生動物保育學會",
      "address": "台中市太平區光興路1086號",
      "phone": "04-24969309"
    },
    {
      "lat": 23.8281679,
      "lng": 120.7965426,
      "name": "生物多樣性研究所野生動物急救站",
      "address": "南投縣集集鎮民生東路一號",
      "phone": "049-2761331#700/715"
    },
    {
      "lat": 23.4742133,
      "lng": 120.4362444,
      "name": "國立嘉義大學獸醫學院附設醫院（只收縣市政府轉送動物）",
      "address": "嘉義市西區新民路580號",
      "phone": "05-2732988"
    },
    {
      "lat": 22.6463129,
      "lng": 120.6161399,
      "name": "屏東科技大學保育類野生動物收容中心",
      "address": "屏東縣內埔鄉學府路1號",
      "phone": "08-7740413"
    },
    {
      "lat": 23.11461,
      "lng": 121.1996708,
      "name": "野灣野生動物保育協會",
      "address": "台東縣池上鄉新興村126號",
      "phone": "089-862368、0972-799052"
    },
    {
      "lat": 24.6665997,
      "lng": 121.8309079,
      "name": "宜蘭縣動植物防疫所",
      "address": "宜蘭縣五結鄉成興村利寶路60號",
      "phone": "03-9602350"
    },
    {
      "lat": 24.44852,
      "lng": 118.42141,
      "name": "金門縣野生動物救援暨保育協會",
      "address": "金門縣金湖鎮南雄30號",
      "phone": "08-2333587"
    },
    {
      "lat": "",
      "lng": "",
      "name": "台灣蝙蝠學會（協助桃竹苗地區）",
      "address": "臉書粉絲專業",
      "phone": "無"
    }
  ],
  "鳥類": [
    {
      "lat": 24.9980129,
      "lng": 121.5827522,
      "name": "臺北市立動物園",
      "address": "臺北市文山區新光路2段30號",
      "phone": "02-2938-2300#716"
    },
    {
      "lat": 25.018748,
      "lng": 121.5594217,
      "name": "臺北市野鳥學會",
      "address": "台北市和平東路三段463巷5號",
      "phone": "02-87328891"
    },
    {
      "lat": 25.063135,
      "lng": 121.51197,
      "name": "不萊梅特殊寵物專科醫院",
      "address": "臺北市大同區民權西路227號",
      "phone": "02-2599-3907"
    },
    {
      "lat": 24.9777046,
      "lng": 121.2770276,
      "name": "桃園市野鳥學會",
      "address": "桃園市八德區高城五街22巷5弄5號",
      "phone": "03-3695685(平日10:00-18:00) 0978-103371(平日18:00-21:00、假日)"
    },
    {
      "lat": 24.800163,
      "lng": 120.9792774,
      "name": "新竹市立動物園",
      "address": "新竹市東區博愛街111號",
      "phone": "03-5222194"
    },
    {
      "lat": 24.7947025,
      "lng": 120.9997242,
      "name": "新竹市野鳥學會",
      "address": "新竹市光復路二段246號4樓之一",
      "phone": "03-5728675"
    },
    {
      "lat": 24.1123663,
      "lng": 120.7311414,
      "name": "臺中市野生動物保育學會",
      "address": "台中市太平區光興路1086號",
      "phone": "04-24969309"
    },
    {
      "lat": 23.8281679,
      "lng": 120.7965426,
      "name": "生物多樣性研究所野生動物急救站",
      "address": "南投縣集集鎮民生東路一號",
      "phone": "049-2761331#700/715"
    },
    {
      "lat": 23.9649845,
      "lng": 120.9675114,
      "name": "南投縣野鳥學會",
      "address": "南投縣埔里",
      "phone": "049-2911838/理事長喻榮華0978-307264/秘書周家安0911-944639(假日不接市話)"
    },
    {
      "lat": 23.7284022,
      "lng": 120.7912125,
      "name": "國立自然科學博物館(鳳凰谷鳥園)",
      "address": "南投縣鹿谷鄉仁義路1-9號",
      "phone": "049-2750974"
    },
    {
      "lat": 23.4742133,
      "lng": 120.4362444,
      "name": "國立嘉義大學獸醫學院附設醫院（只收縣市政府轉送動物）",
      "address": "嘉義市西區新民路580號",
      "phone": "05-2732988"
    },
    {
      "lat": 22.9830285,
      "lng": 120.2049212,
      "name": "台南市野鳥學會",
      "address": "台南市南門路237巷10號3樓",
      "phone": "06-2138310、2138331"
    },
    {
      "lat": 23.2785145,
      "lng": 120.2080535,
      "name": "頑皮世界（收市府轉送動物）",
      "address": "台南市學甲區三慶里頂洲75-25號",
      "phone": "06-7810000"
    },
    {
      "lat": 22.9772417,
      "lng": 120.1908744,
      "name": "慈愛動物醫院（金華院）",
      "address": "台南市金華路二段39巷3號",
      "phone": "06-2641220"
    },
    {
      "lat": 22.6364639,
      "lng": 120.2748072,
      "name": "高雄市壽山動物園（主管機關委託，收保育類或緊急動物）",
      "address": "高雄市鼓山區萬壽路350號",
      "phone": "07-5215187"
    },
    {
      "lat": 22.6463129,
      "lng": 120.6161399,
      "name": "屏東科技大學保育類野生動物收容中心",
      "address": "屏東縣內埔鄉學府路1號",
      "phone": "08-7740413"
    },
    {
      "lat": 23.11461,
      "lng": 121.1996708,
      "name": "野灣野生動物保育協會",
      "address": "台東縣池上鄉新興村126號",
      "phone": "089-862368、0972-799052"
    },
    {
      "lat": 23.9728626,
      "lng": 121.5945318,
      "name": "花蓮縣野鳥學會",
      "address": "花蓮市德安1街94巷9號",
      "phone": "03-8339434"
    },
    {
      "lat": 24.6665997,
      "lng": 121.8309079,
      "name": "宜蘭縣動植物防疫所",
      "address": "宜蘭縣五結鄉成興村利寶路60號",
      "phone": "03-9602350"
    },
    {
      "lat": 24.44852,
      "lng": 118.42141,
      "name": "金門縣野生動物救援暨保育協會",
      "address": "金門縣金湖鎮南雄30號",
      "phone": "08-2333587"
    },
    {
      "lat": "",
      "lng": "",
      "name": "台灣野生鳥類緊急救助平台",
      "address": "無",
      "phone": ""
    }
  ],
  "外來種": [
    {
      "lat": 25.0188042,
      "lng": 121.5726308,
      "name": "台北市動物保護處救救援隊",
      "address": "台北市信義區吳興街600巷109號",
      "phone": "02-87897158，0287913064轉60059救援隊"
    },
    {
      "lat": 25.0040555,
      "lng": 121.4605077,
      "name": "新北市政府 動物保護防疫處",
      "address": "台北縣板橋市四川路一段157巷2號",
      "phone": "02-29596353轉214"
    },
    {
      "lat": 25.1311408,
      "lng": 121.7459168,
      "name": "基隆市動物保護防疫所（鴿子有救援其餘外來鳥人道處理）",
      "address": "基隆市中正區信二路301號3樓",
      "phone": "02-24280677轉202"
    },
    {
      "lat": 24.9929026,
      "lng": 121.3010601,
      "name": "桃園市農業局林務科",
      "address": "桃園市桃園區縣府路1號4樓",
      "phone": "03-3329182"
    },
    {
      "lat": 24.8066043,
      "lng": 120.9690755,
      "name": "新竹市產業發展處生態保育科",
      "address": "新竹市中正路120號",
      "phone": "03-5216121轉401"
    },
    {
      "lat": 24.5617609,
      "lng": 120.836345,
      "name": "苗栗縣動物保護防疫所",
      "address": "苗栗縣苗栗市玉清路382-1號",
      "phone": "03-7320049"
    },
    {
      "lat": 24.2467384,
      "lng": 120.7206229,
      "name": "臺中市政府農業局林務自然保育科",
      "address": "台中市豐原區陽明街36號5樓",
      "phone": "04-22289111#56202"
    },
    {
      "lat": 24.1391355,
      "lng": 120.6398345,
      "name": "臺中市動物保護防疫處(特寵)",
      "address": "臺中市南屯區萬和路1段28-18號",
      "phone": "04-23869420"
    },
    {
      "lat": 23.9025457,
      "lng": 120.6906226,
      "name": "南投縣農業處林務保育科",
      "address": "南投市中興路660號",
      "phone": "049-2222340"
    },
    {
      "lat": 23.6990297,
      "lng": 120.5263803,
      "name": "雲林縣農業處森林暨保育科",
      "address": "雲林縣斗六市雲林路二段515號",
      "phone": "05-5522509"
    },
    {
      "lat": 23.4587242,
      "lng": 120.292914,
      "name": "嘉義縣農業處綠化保育科",
      "address": "嘉義縣祥和一路東段1號",
      "phone": "05-3620123轉450"
    },
    {
      "lat": 23.4812046,
      "lng": 120.4537254,
      "name": "嘉義市建設處農林畜牧科（爬蟲類人道處理）",
      "address": "嘉義市中山路199號",
      "phone": "05-2290357"
    },
    {
      "lat": 24.0754698,
      "lng": 120.5447299,
      "name": "彰化縣林務暨保育科（未受傷動物）",
      "address": "彰化縣中山路二段416號",
      "phone": "04-7531621"
    },
    {
      "lat": 23.9453598,
      "lng": 120.5662623,
      "name": "彰化縣動物防疫所動物保護課(受傷動物)",
      "address": "彰化縣中央路2號",
      "phone": "04-7620774"
    },
    {
      "lat": 22.6295626,
      "lng": 120.3437083,
      "name": "高雄市農業局植物防疫及生態保育科",
      "address": "高雄市鳳山區光復路二段132號",
      "phone": "07-7995678轉6161"
    },
    {
      "lat": 22.6827506,
      "lng": 120.4879703,
      "name": "屏東縣農業處林業保育科（人道處理）",
      "address": "屏東市自由路527號",
      "phone": "08-7653860"
    },
    {
      "lat": 22.7555428,
      "lng": 121.1502281,
      "name": "台東縣農業處畜產保育科",
      "address": "台東市中山路276號",
      "phone": "089-3433357"
    },
    {
      "lat": 23.9927699,
      "lng": 121.617747,
      "name": "花蓮縣動植物防疫所（優先接受縣政府委託）",
      "address": "花蓮市瑞美路5號",
      "phone": "03-8227431轉112"
    },
    {
      "lat": 24.7277983,
      "lng": 121.7601507,
      "name": "宜蘭縣政府農業處畜產科",
      "address": "宜蘭市南津里13鄰縣政北路1號",
      "phone": "03-9251000 # 1519"
    },
    {
      "lat": 24.4371081,
      "lng": 118.3187621,
      "name": "金門縣建設局農林課",
      "address": "金門縣金城鎮民生路60號",
      "phone": "082-321254"
    },
    {
      "lat": 24.4436087,
      "lng": 118.3520872,
      "name": "金門國家公園 保育研究課",
      "address": "金門縣金寧鄉伯玉路二段460號",
      "phone": "082-313100，082-313173"
    },
    {
      "lat": 23.5675861,
      "lng": 119.5752134,
      "name": "澎湖縣政府農漁局生態保育課（外來種如有危險性-人道處理）",
      "address": "澎湖縣馬公市新營路477號",
      "phone": "06-9262620#110、06-927-5578"
    },
    {
      "lat": 26.1545215,
      "lng": 119.9552627,
      "name": "連江縣政府產業發展處漁牧科",
      "address": "連江縣南竿鄉介壽村76號",
      "phone": "(08)362-6078"
    }
  ]
}